l_id,location,latitude,longitude,latlong,pop_group1,pop_group2,pop_group3,pop_density
1,Bangkok,13.74999921,100.5166447,"13.74999921,100.5166447",21754000,10132000,3576000,18993
2,"Chiang Mai",18.7999752,98.98004594,"18.7999752,98.98004594",14593299,2398898,6796879,9946
3,"Hat Yai",6.996432107,100.4714278,"6.996432107,100.4714278",4584050,1617900,9842225,6420
4,"Nakhon Ratchasima",15.00002626,102.1000105,"15.00002626,102.1000105",2402260,14613746,6806402,9770
5,"Udon Thani",17.4047632,102.7893225,"17.4047632,102.7893225",5573253,1967030,11966102,14956
6,Phuket,7.876533426,98.3815295,"7.876533426,98.3815295",1668000,4726001,10147001,13872
7,"Khon Kaen",16.42004295,102.8300435,"16.42004295,102.8300435",8755023,4077682,1439182,261
